[
    {
        "title": "강릉 대기리마을",
        "location": "강원특별자치도 강릉시 왕산면 용수길 11",
        "lat": 37.5878658813,
        "lng": 128.7785935029
    },
    {
        "title": "거제 계도어촌체험마을",
        "location": "경상남도 거제시 사등면 가조로 837",
        "lat": 34.9748138011,
        "lng": 128.5174966194
    },
    {
        "title": "경상남도안전체험관",
        "location": "경상남도 합천군 용주면 고품리",
        "lat": 35.5546357918,
        "lng": 128.1147080903
    },
    {
        "title": "광안리해변 테마거리",
        "location": "부산광역시 수영구 민락동(민락동)",
        "lat": 35.1551657503,
        "lng": 129.1221363273
    },
    {
        "title": "나주 구진포 장어거리",
        "location": "전라남도 나주시 다시면 가운리",
        "lat": 35.0073365059,
        "lng": 126.6723605590
    },
    {
        "title": "남원 추어탕 거리",
        "location": "전라북도 남원시 천거동(천거동)",
        "lat": 35.4005540714,
        "lng": 127.3766717134
    },
    {
        "title": "대룡마을",
        "location": "부산광역시 기장군 장안읍 대룡1길 10",
        "lat": 35.3708886464,
        "lng": 129.2635125022
    },
    {
        "title": "대항갯벌체험",
        "location": "전라북도 부안군 변산면 변산로 1906",
        "lat": 35.6888709214,
        "lng": 126.5386276441
    },
    {
        "title": "마비정 벽화마을",
        "location": "대구광역시 달성군 화원읍 마비정길 259",
        "lat": 35.7792959366,
        "lng": 128.5422448752
    },
    {
        "title": "물텀벙 특화음식거리",
        "location": "인천광역시 미추홀구 용현동",
        "lat": 37.4558417998,
        "lng": 126.6487902966
    },
    {
        "title": "별천지곤드레마을 / 별천지마을",
        "location": "강원특별자치도 평창군 평창읍 고길천로 789",
        "lat": 37.4137190965,
        "lng": 128.4773814144
    },
    {
        "title": "부산과학체험관",
        "location": "부산광역시 동구 중앙대로260번길 11 (초량동)부산과학체험관",
        "lat": 35.1203598735,
        "lng": 129.0441551729
    },
    {
        "title": "부산역 풍물거리",
        "location": "부산광역시 동구 초량동",
        "lat": 35.1141382924,
        "lng": 129.0411278278
    },
    {
        "title": "부산자연곤충마을",
        "location": "부산광역시 강서구 평강로 441 (대저1동)",
        "lat": 35.2215994869,
        "lng": 128.9452499072
    },
    {
        "title": "쇠소깍산물관광농원",
        "location": "제주특별자치도 서귀포시 남원읍 하례로 90",
        "lat": 33.2579003538,
        "lng": 126.6247170530
    },
    {
        "title": "수리산 상상마을",
        "location": "경기도 군포시 수리산로 112(산본동)",
        "lat": 37.3592689195,
        "lng": 126.9194350066
    },
    {
        "title": "수안마을",
        "location": "경상남도 김해시 대동면 수안리 48",
        "lat": 35.2313843315,
        "lng": 128.9360476648
    },
    {
        "title": "쉬리마을",
        "location": "강원특별자치도 철원군 김화읍 김화로 633-17",
        "lat": 38.2475162777,
        "lng": 127.4217940333
    },
    {
        "title": "시흥ABC행복학습타운",
        "location": "경기도 시흥시 소래산길 11(대야동)",
        "lat": 37.4486644855,
        "lng": 126.7848725351
    },
    {
        "title": "양평임실치즈마을",
        "location": "경기도 양평군 서종면 수능리",
        "lat": 37.5965691105,
        "lng": 127.3785643031
    },
    {
        "title": "엘크레",
        "location": "서울특별시 강남구 도산대로15길 411층",
        "lat": 37.5209353470,
        "lng": 127.0232182384
    },
    {
        "title": "영산포 홍어거리",
        "location": "전라남도 나주시 영산동",
        "lat": 34.9999657492,
        "lng": 126.7103907128
    },
    {
        "title": "울산 신화마을",
        "location": "울산광역시 남구 여천로66번길 7",
        "lat": 35.5235174122,
        "lng": 129.3413431085
    },
    {
        "title": "울진과학체험관",
        "location": "경상북도 울진군 울진읍 연지길 30",
        "lat": 36.9964600064,
        "lng": 129.4088385136
    },
    {
        "title": "월미문화의거리 & 달빛음악분수",
        "location": "인천광역시 중구 월미로 252(북성동1가)",
        "lat": 37.4738860361,
        "lng": 126.5983832839
    },
    {
        "title": "장흥리 산촌생태마을",
        "location": "경기도 여주시 금사면 장흥로 355",
        "lat": 37.3912894061,
        "lng": 127.4908739045
    },
    {
        "title": "진부령 흘리마을",
        "location": "강원특별자치도 고성군 간성읍 흘리길 185",
        "lat": 38.2648711759,
        "lng": 128.3741425923
    },
    {
        "title": "큰삼촌농촌체험-휴양마을",
        "location": "경기도 양평군 청운면 신론리",
        "lat": 37.5608638880,
        "lng": 127.7752487823
    },
    {
        "title": "퇴로고가마을",
        "location": "경상남도 밀양시 부북면 퇴로로 233",
        "lat": 35.5489470763,
        "lng": 128.7006512013
    },
    {
        "title": "파주 맛고을 음식문화거리",
        "location": "경기도 파주시 탄현면",
        "lat": 37.7992996663,
        "lng": 126.6844413030
    },
    {
        "title": "편백포레스트",
        "location": "제주특별자치도 서귀포시 남원읍 서성로 544-97",
        "lat": 33.3172804702,
        "lng": 126.6597376780
    },
    {
        "title": "하나개 팜",
        "location": "인천광역시 중구 하나개로 157",
        "lat": 37.3840237523,
        "lng": 126.4109639762
    },
    {
        "title": "하저어촌체험마을",
        "location": "전라남도 강진군 대구면 저두바닷길 19",
        "lat": 34.5272396886,
        "lng": 126.7912673485
    },
    {
        "title": "행궁동 벽화마을",
        "location": "경기도 수원시 팔달구 화서문로72번길 9-6(북수동)",
        "lat": 37.2855791918,
        "lng": 127.0165338018
    },
    {
        "title": "헤이리 예술마을",
        "location": "경기도 파주시 탄현면 헤이리마을길 70-21",
        "lat": 37.7880651301,
        "lng": 126.6993124807
    },
    {
        "title": "한국국제가구 및 인테리어산업대전 : 코펀",
        "location": "경기도 고양시 일산서구 킨텍스로 217-60 킨텍스킨텍스 3, 4 홀",
        "lat": 37.6689881691,
        "lng": 126.7458171427
    },
    {
        "title": "사라져 가는 친구들",
        "location": "충청남도 서천군 마서면 금강로 1210",
        "lat": 36.0271354218,
        "lng": 126.7194583721
    },
    {
        "title": "서울국제가구 및 인테리어산업대전 : 소펀&라이프쇼",
        "location": "서울특별시 강남구 영동대로 513 코엑스",
        "lat": 37.5119175967,
        "lng": 127.0592179950
    },
    {
        "title": "서울일러스트레이션페어V.15",
        "location": "서울특별시 강남구 영동대로 513 (삼성동)COEX B & D1 HALL",
        "lat": 37.5119175967,
        "lng": 127.0592179950
    },
    {
        "title": "2023 한·세계화상비즈니스위크",
        "location": "경상남도 창원시 성산구 원이대로 362 (대원동)",
        "lat": 35.2382867979,
        "lng": 128.6578550874
    },
    {
        "title": "이탈리아마을 그랜드오픈 2주년 기념행사",
        "location": "경기도 가평군 청평면 호반로 1063",
        "lat": 37.7150574078,
        "lng": 127.4909256481
    },
    {
        "title": "제20회 대구국제오페라축제",
        "location": "대구광역시 북구 호암로 15(칠성동2가)",
        "lat": 35.8834461788,
        "lng": 128.5920987054
    },
    {
        "title": "제17회 이순신장군배국제요트대회",
        "location": "경상남도 통영시 도남로 269-20 (도남동)",
        "lat": 34.8277704211,
        "lng": 128.4338633445
    },
    {
        "title": "2023년 유니버설디자인 공감주간 <모두를 잇다, 있다>",
        "location": "서울특별시 서초구 남부순환로 2406 (서초동)",
        "lat": 37.4804843130,
        "lng": 127.0134702692
    },
    {
        "title": "서울디자인 2023",
        "location": "서울특별시 중구 을지로 281 (을지로7가)",
        "lat": 37.5661076320,
        "lng": 127.0095709797
    },
    {
        "title": "제2회 세계를 품은 인천교육 한마당",
        "location": "인천광역시 연수구 센트럴로 123 (송도동)",
        "lat": 37.3900244069,
        "lng": 126.6466173186
    },
    {
        "title": "2023 전남국제수묵비엔날레",
        "location": "전라남도 목포시 남농로 102(용해동)",
        "lat": 34.7917871569,
        "lng": 126.4182854798
    },
    {
        "title": "2023 부산 정원박람회",
        "location": "부산광역시 사하구 다대동다대포해변공원",
        "lat": 35.0466389299,
        "lng": 128.9671277665
    },
    {
        "title": "BBAF2023(부평부천아트페어)",
        "location": "인천광역시 부평구 화랑로 65 (산곡동)",
        "lat": 37.4897693666,
        "lng": 126.7027927603
    },
    {
        "title": "익산천만송이국화축제",
        "location": "전라북도 익산시 하나로 322 (어양동)",
        "lat": 35.9492655338,
        "lng": 126.9844672731
    },
    {
        "title": "춘천연극제",
        "location": "강원특별자치도 춘천시 서부대성로 71(옥천동)",
        "lat": 37.8825368301,
        "lng": 127.7312071874
    },
    {
        "title": "2023 지역문화박람회",
        "location": "강원특별자치도 동해시 일출로 22 (발한동)",
        "lat": 37.5503655931,
        "lng": 129.1125285496
    },
    {
        "title": "오르:빛 재인폭포",
        "location": "경기도 연천군 연천읍 고문리산21 재인폭포",
        "lat": 38.0704565765,
        "lng": 127.1286150286
    },
    {
        "title": "2023 유니카 코리아 국제영화제",
        "location": "경상북도 경산시 대학로28길 6-5 (중방동)",
        "lat": 35.8331017706,
        "lng": 128.7366762706
    },
    {
        "title": "2023 서울안보대화 (Seoul Defense Dialogue 2023)",
        "location": "서울특별시 강남구 테헤란로 521 (삼성동)",
        "lat": 37.5092457134,
        "lng": 127.0608234799
    },
    {
        "title": "제주해양레저",
        "location": "제주특별자치도 서귀포시 중문관광로 192",
        "lat": 33.2432598241,
        "lng": 126.4190129892
    },
    {
        "title": "레포츠114",
        "location": "강원특별자치도 철원군 갈말읍 군탄리 707-17",
        "lat": 38.1769472284,
        "lng": 127.2974214220
    },
    {
        "title": "철원관광레저",
        "location": "강원특별자치도 철원군 갈말읍 갈말로 358",
        "lat": 38.1854686392,
        "lng": 127.3074424738
    },
    {
        "title": "반딧불레저",
        "location": "전라북도 무주군 부남면 무금로 693",
        "lat": 36.0000399414,
        "lng": 127.5978168510
    },
    {
        "title": "순담레저",
        "location": "강원특별자치도 철원군 갈말읍 순담길 149",
        "lat": 38.1768583529,
        "lng": 127.2975797445
    },
    {
        "title": "한백레저",
        "location": "강원특별자치도 인제군 인제읍 내린천로 6211",
        "lat": 38.0431160103,
        "lng": 128.2067618712
    },
    {
        "title": "케이레포츠",
        "location": "경상남도 산청군 산청읍 꽃봉산로34번길 131",
        "lat": 35.4089090259,
        "lng": 127.8716833773
    },
    {
        "title": "샘마을레저파크",
        "location": "강원특별자치도 춘천시 남산면 방하로 429",
        "lat": 37.7732710220,
        "lng": 127.5417498778
    },
    {
        "title": "라온레포츠",
        "location": "경상남도 합천군 용주면 합천호수로 828-5",
        "lat": 35.5468943839,
        "lng": 128.0803557687
    },
    {
        "title": "삼척 해양레일바이크",
        "location": "강원특별자치도 삼척시 근덕면 공양왕길 2",
        "lat": 37.3236974745,
        "lng": 129.2663939824
    },
    {
        "title": "완주 에코 어드벤처",
        "location": "전라북도 완주군 고산면 고산휴양림로 246",
        "lat": 35.9629766259,
        "lng": 127.2331252962
    },
    {
        "title": "하이원추추파크",
        "location": "강원특별자치도 삼척시 도계읍 심포남길 99",
        "lat": 37.1840035320,
        "lng": 129.0385963575
    },
    {
        "title": "카트조이",
        "location": "강원특별자치도 철원군 갈말읍 드르니길 26",
        "lat": 38.1503281387,
        "lng": 127.2985721041
    },
    {
        "title": "홍천 가리산 레포츠파크",
        "location": "강원특별자치도 홍천군 두촌면 가리산길 426",
        "lat": 37.8656906963,
        "lng": 127.9811710711
    },
    {
        "title": "거제 덕포랜드 씨라인",
        "location": "경상남도 거제시 덕포5길 35-2(덕포동)",
        "lat": 34.9121604129,
        "lng": 128.7109369971
    },
    {
        "title": "동강레포츠",
        "location": "강원특별자치도 평창군 미탄면 마하길 41-5",
        "lat": 37.2917010437,
        "lng": 128.5410987766
    },
    {
        "title": "제주빅볼랜드",
        "location": "제주특별자치도 제주시 구좌읍 송당리산164-4",
        "lat": 33.4432295160,
        "lng": 126.7749137162
    },
    {
        "title": "제주레포츠랜드㈜",
        "location": "제주특별자치도 제주시 조천읍 와흘상서2길 47",
        "lat": 33.4821813471,
        "lng": 126.6381496945
    },
    {
        "title": "scg스포츠아카데미",
        "location": "서울특별시 은평구 통일로 1050(진관동)",
        "lat": 37.6375893423,
        "lng": 126.9179134227
    },
    {
        "title": "아리힐스 리조트(스카이워크, 녹색모험의 숲)",
        "location": "강원특별자치도 정선군 정선읍 병방치길 225",
        "lat": 37.3623780337,
        "lng": 128.6354715236
    },
    {
        "title": "해담마을 수륙양용차",
        "location": "강원특별자치도 양양군 서면 구룡령로 2110-17",
        "lat": 37.9879397902,
        "lng": 128.5324923352
    },
    {
        "title": "청도레일바이크",
        "location": "경상북도 청도군 청도읍 하지길 46-51",
        "lat": 35.5881549745,
        "lng": 128.7661999291
    },
    {
        "title": "쎄시봉",
        "location": "경기도 양평군 강상면 독배길 32-25",
        "lat": 37.4936522290,
        "lng": 127.4734614300
    },
    {
        "title": "임진각평화곤돌라(파주디엠지곤돌라)",
        "location": "경기도 파주시 문산읍 임진각로 148-73",
        "lat": 37.8915065690,
        "lng": 126.7402919011
    },
    {
        "title": "제천 산악체험장",
        "location": "충청북도 제천시 금성면 청풍호로39길 100",
        "lat": 37.0284552455,
        "lng": 128.1879354262
    },
    {
        "title": "비발디파크 스카이스윙",
        "location": "강원특별자치도 홍천군 서면 한치골길 262",
        "lat": 37.6523905338,
        "lng": 127.6873540732
    },
    {
        "title": "레포밸리",
        "location": "강원특별자치도 양양군 고노동길 98-50",
        "lat": 38.0544171266,
        "lng": 128.6215849823
    },
    {
        "title": "레전드히어로즈 잠실롯데월드몰점",
        "location": "서울특별시 송파구 신천동 29 롯데월드타워앤드롯데월드몰3층",
        "lat": 37.5142459111,
        "lng": 127.1040305171
    },
    {
        "title": "크레이지팡팡",
        "location": "대구광역시 중구 진골목길 32",
        "lat": 35.8688561820,
        "lng": 128.5930545836
    },
    {
        "title": "라마다 짚트랙",
        "location": "전라남도 여수시 강남로 1124F 짚트랙",
        "lat": 34.7170457484,
        "lng": 127.7482982400
    },
    {
        "title": "평창군 스카이 타워 체험시설",
        "location": "강원특별자치도 평창군 대관령면 수하리240-144",
        "lat": 37.6642524400,
        "lng": 128.6835247300
    },
    {
        "title": "코리아레저캠프",
        "location": "강원특별자치도 철원군 동송읍 태봉로 1842-5(동송읍)",
        "lat": 38.1890706207,
        "lng": 127.2870914553
    },
    {
        "title": "무주레저스쿨",
        "location": "전라북도 무주군 부남면 굴암로 263",
        "lat": 35.9929515733,
        "lng": 127.5816851420
    },
    {
        "title": "무주스피드레져",
        "location": "전라북도 무주군 부남면 잠두강변길 215",
        "lat": 36.0030118441,
        "lng": 127.5988444571
    },
    {
        "title": "1004 뮤지엄파크",
        "location": "전라남도 신안군 자은서부2길 508-65",
        "lat": 34.8779816821,
        "lng": 125.9959235736
    },
    {
        "title": "5·18 기념공원",
        "location": "광주광역시 서구 내방로 152",
        "lat": 35.1557506526,
        "lng": 126.8585681905
    },
    {
        "title": "가야산역사신화테마관",
        "location": "경상북도 성주군 수륜면 가야산식물원길 21",
        "lat": 35.8010639410,
        "lng": 128.1410602092
    },
    {
        "title": "갈매중앙공원",
        "location": "경기도 구리시 갈매동",
        "lat": 37.6311631455,
        "lng": 127.1185814171
    },
    {
        "title": "강서체육공원",
        "location": "부산광역시 강서구 체육공원로 43 (대저1동)",
        "lat": 35.2078571105,
        "lng": 128.9738950093
    },
    {
        "title": "강아지숲",
        "location": "강원특별자치도 춘천시 남산면 충효로 437",
        "lat": 37.7364886333,
        "lng": 127.6620400154
    },
    {
        "title": "개나리공원",
        "location": "경기도 화성시 반송동 29",
        "lat": 37.2095805316,
        "lng": 127.0655481462
    },
    {
        "title": "개화예술공원",
        "location": "충청남도 보령시 성주면 성주산로 673-47",
        "lat": 36.3133182941,
        "lng": 126.6585619211
    },
    {
        "title": "거제저도유람선",
        "location": "경상남도 거제시 장목면 거제북로 2633-15",
        "lat": 35.0010475573,
        "lng": 128.7035269333
    },
    {
        "title": "경인아라뱃길유람선 현대크루즈호",
        "location": "경기도 김포시 고촌읍 아라육로270번길 74",
        "lat": 37.5976722054,
        "lng": 126.7871264874
    },
    {
        "title": "계남공원(유아숲체험장, 우렁바위)",
        "location": "서울특별시 양천구 신정동",
        "lat": 37.5127914822,
        "lng": 126.8474483699
    },
    {
        "title": "고성당항포랜드",
        "location": "경상남도 고성군 회화면 당항만로 1116",
        "lat": 35.0563858594,
        "lng": 128.3986687125
    },
    {
        "title": "고스트타운",
        "location": "제주특별자치도 제주시 애월읍 부룡수길 35-14",
        "lat": 33.4763969581,
        "lng": 126.3568659412
    },
    {
        "title": "고흥 유자공원",
        "location": "전라남도 고흥군 풍양면 대청길 33-11",
        "lat": 34.5723920566,
        "lng": 127.2353522997
    },
    {
        "title": "곤제근린공원",
        "location": "경기도 의정부시 낙양동",
        "lat": 37.7467963073,
        "lng": 127.0849256196
    },
    {
        "title": "광교중앙공원",
        "location": "경기도 수원시 영통구 광교로 105(이의동)",
        "lat": 37.2941428801,
        "lng": 127.0608045440
    },
    {
        "title": "광교호수공원 반려견 놀이터",
        "location": "경기도 수원시 영통구 광교호수로 214 광교호수공원시설 주차관리소광교호수공원 반려견 놀이터",
        "lat": 37.2835610668,
        "lng": 127.0772644577
    },
    {
        "title": "광주공원",
        "location": "광주광역시 남구 중앙로107번길 15(구동)",
        "lat": 35.1468969300,
        "lng": 126.9079362685
    },
    {
        "title": "구례 관광특구",
        "location": "전라남도 구례군 마산면 화엄사로 539",
        "lat": 35.2573140182,
        "lng": 127.4977425065
    },
    {
        "title": "구암공원",
        "location": "서울특별시 강서구 허준로5길 42(가양동)",
        "lat": 37.5676574399,
        "lng": 126.8537656954
    },
    {
        "title": "구포 어린이교통공원",
        "location": "부산광역시 북구 낙동북로 687(구포동)",
        "lat": 35.2010694626,
        "lng": 128.9999568140
    },
    {
        "title": "국립김천치유의숲",
        "location": "경상북도 김천시 증산면 수도길 1237-89",
        "lat": 35.8514140611,
        "lng": 128.0022377784
    },
    {
        "title": "국립신암선열공원",
        "location": "대구광역시 동구 동북로71길 33(신암동)",
        "lat": 35.8906738592,
        "lng": 128.6311450641
    },
    {
        "title": "군남홍수조절지 두루미테마파크",
        "location": "경기도 연천군 군남면",
        "lat": 38.1039312532,
        "lng": 127.0207183918
    },
    {
        "title": "글로리비치해수찜",
        "location": "전라남도 영광군 백수읍 해안로 950",
        "lat": 35.3528760420,
        "lng": 126.3891410344
    },
    {
        "title": "김해 롯데워터파크",
        "location": "경상남도 김해시 장유로 555",
        "lat": 35.1810435696,
        "lng": 128.8291361340
    },
    {
        "title": "나곡낚시공원 (바다낚시공원)",
        "location": "경상북도 울진군 북면 나곡리 33-1",
        "lat": 37.1179204830,
        "lng": 129.3773153950
    },
    {
        "title": "낙강물길공원",
        "location": "경상북도 안동시 상아동 423(상아동)",
        "lat": 36.5879083232,
        "lng": 128.7709711823
    },
    {
        "title": "낙동강 레일파크",
        "location": "경상남도 김해시 생림면 마사로473번길 41",
        "lat": 35.3718164453,
        "lng": 128.8208649863
    },
    {
        "title": "노리개운동장",
        "location": "경기도 용인시 처인구 원양로291번길 103-6노리개운동장",
        "lat": 37.1845903080,
        "lng": 127.2944586731
    },
    {
        "title": "노해체육공원",
        "location": "서울특별시 노원구 공릉로22길 1 (공릉동)",
        "lat": 37.6205219892,
        "lng": 127.0783159455
    },
    {
        "title": "능내근린공원",
        "location": "인천광역시 서구 검단로540번길 41(마전동)",
        "lat": 37.6014113024,
        "lng": 126.6669234727
    },
    {
        "title": "단경골 휴양지",
        "location": "강원특별자치도 강릉시 강동면 단경로 841(강동면)",
        "lat": 37.6724226769,
        "lng": 128.9164479523
    },
    {
        "title": "단양 관광특구",
        "location": "충청북도 단양군 단양읍 고수동굴길 3-11",
        "lat": 36.9876968886,
        "lng": 128.3817414679
    },
    {
        "title": "단양 다리안관광지",
        "location": "충청북도 단양군 단양읍 소백산등산길 12",
        "lat": 36.9648335809,
        "lng": 128.4208025284
    },
    {
        "title": "담양 오랑쥬마을",
        "location": "전라남도 담양군 메타세쿼이아로 146 테테루 테마파크",
        "lat": 35.3297281254,
        "lng": 127.0174136401
    },
    {
        "title": "대관령 관광특구",
        "location": "강원특별자치도강릉시, 동해시, 삼척시, 횡성군, 평창군 일원",
        "lat": 37.6487487373,
        "lng": 128.6866415890
    },
    {
        "title": "대구두류공원",
        "location": "대구광역시 달서구 공원순환로 36",
        "lat": 35.8500105518,
        "lng": 128.5637104699
    },
    {
        "title": "대구어린이대공원",
        "location": "대구광역시 수성구 동대구로 176(황금동)",
        "lat": 35.8467259942,
        "lng": 128.6277993617
    },
    {
        "title": "덕동산근린공원",
        "location": "경기도 평택시 비전동 산84-14",
        "lat": 36.9977222941,
        "lng": 127.1000036944
    },
    {
        "title": "델피노호텔&리조트 오션플레이",
        "location": "강원특별자치도 고성군 토성면 미시령옛길 1153",
        "lat": 38.2121351898,
        "lng": 128.4937555708
    },
    {
        "title": "도곡온천단지",
        "location": "전라남도 화순군 도곡면 천암리",
        "lat": 35.0296656282,
        "lng": 126.9028896419
    },
    {
        "title": "도그베이 송추점",
        "location": "경기도 양주시 호국로 542-20",
        "lat": 37.7177532607,
        "lng": 126.9750531497
    },
    {
        "title": "도산온천",
        "location": "경상북도 안동시 도산면 온천로 570(도산면)",
        "lat": 36.7505017932,
        "lng": 128.8201648427
    },
    {
        "title": "도장포유람선",
        "location": "경상남도 거제시 남부면 도장포1길 55",
        "lat": 34.7421507509,
        "lng": 128.6626095963
    },
    {
        "title": "도째비골스카이밸리",
        "location": "강원특별자치도 동해시 묵호진동 2-109",
        "lat": 37.5553040418,
        "lng": 129.1191500261
    },
    {
        "title": "동촌유원지",
        "location": "대구광역시 동구 효동로2길 72(효목동)",
        "lat": 35.8782784742,
        "lng": 128.6546405629
    },
    {
        "title": "동탄치동천체육공원",
        "location": "경기도 화성시 동탄순환대로29길 38(영천동)",
        "lat": 37.2059789118,
        "lng": 127.1070000460
    },
    {
        "title": "두류정수장후적지",
        "location": "대구광역시 달서구 두류동",
        "lat": 35.8500491876,
        "lng": 128.5501477749
    },
    {
        "title": "뒷미지수변공원(뒤미지)",
        "location": "경상북도 성주군 초전면 용성3길 25",
        "lat": 35.9429529101,
        "lng": 128.2666202266
    },
    {
        "title": "등나무근린공원",
        "location": "서울특별시 노원구 동일로 1238 서울시립 북서울미술관",
        "lat": 37.6407111019,
        "lng": 127.0668719687
    },
    {
        "title": "디스커버리 네이처스케이프 동탄점",
        "location": "경기도 화성시 동탄대로5길 21라크몽 A동 4층",
        "lat": 37.1669417270,
        "lng": 127.1051707463
    },
    {
        "title": "딴산유원지",
        "location": "강원특별자치도 화천군 화천읍 대이리 산1-1",
        "lat": 38.1232037563,
        "lng": 127.7588419198
    },
    {
        "title": "땅끝관광지",
        "location": "전라남도 해남군 송지면 땅끝마을길 60-28",
        "lat": 34.2980165668,
        "lng": 126.5266488294
    },
    {
        "title": "롯데월드 어드벤처 부산",
        "location": "부산광역시 기장군 동부산관광로 42",
        "lat": 35.1960684107,
        "lng": 129.2129995240
    },
    {
        "title": "무민랜드 제주",
        "location": "제주특별자치도 서귀포시 병악로 420",
        "lat": 33.3070133076,
        "lng": 126.3817036921
    },
    {
        "title": "무주 반디랜드",
        "location": "전라북도 무주군 설천면 무설로 1324",
        "lat": 36.0132357529,
        "lng": 127.7587605263
    },
    {
        "title": "물너울공원",
        "location": "경상북도 경주시 북군동236-17",
        "lat": 35.8514484954,
        "lng": 129.2658237436
    },
    {
        "title": "물레방아광장",
        "location": "경상북도 경주시 보문로 421",
        "lat": 35.8455356653,
        "lng": 129.2865137664
    },
    {
        "title": "물안개공원",
        "location": "경기도 양평군 양평읍 물안개공원길 37",
        "lat": 37.5000709583,
        "lng": 127.4750305464
    },
    {
        "title": "뮤지엄 딥다이브",
        "location": "강원특별자치도 평창군 대관령면 올림픽로 787",
        "lat": 37.6424686139,
        "lng": 128.6714098194
    },
    {
        "title": "민락해변공원",
        "location": "부산광역시 수영구 민락동",
        "lat": 35.1553990814,
        "lng": 129.1234195429
    },
    {
        "title": "밤밭청개구리공원",
        "location": "경기 수원시 장안구 율전동 124-1",
        "lat": 37.3072980848,
        "lng": 126.9709901076
    },
    {
        "title": "밤섬유원지",
        "location": "경기도 남양주시 진접읍 내각리",
        "lat": 37.6934011618,
        "lng": 127.1632422299
    },
    {
        "title": "백만송이장미원",
        "location": "경기도 부천시 성곡로63번길 99(도당동)",
        "lat": 37.5171011272,
        "lng": 126.7932087502
    },
    {
        "title": "봉골근린공원",
        "location": "경기도 평택시 고덕동",
        "lat": 37.0267377118,
        "lng": 127.0619396665
    },
    {
        "title": "봉담 호수공원",
        "location": "경기도 화성시 봉담읍 상리 22-10",
        "lat": 37.2197245445,
        "lng": 126.9513332219
    },
    {
        "title": "봉화산옹기테마공원",
        "location": "서울특별시 중랑구 신내로21길 116 (신내동)",
        "lat": 37.6127064158,
        "lng": 127.0885346818
    },
    {
        "title": "봉화재 반려견 놀이터",
        "location": "울산광역시 동구 봉수로 27-53",
        "lat": 35.4928916546,
        "lng": 129.4133460299
    },
    {
        "title": "부산 에덴공원",
        "location": "부산광역시 사하구 하단동",
        "lat": 35.1092346301,
        "lng": 128.9632291831
    },
    {
        "title": "부산어린이대공원",
        "location": "부산광역시 부산진구 새싹로 295",
        "lat": 35.1872579098,
        "lng": 129.0426784717
    },
    {
        "title": "부평공원",
        "location": "인천광역시 부평구 부평공원로(부평동)",
        "lat": 37.4895890413,
        "lng": 126.7146083543
    },
    {
        "title": "빛가람 호수공원",
        "location": "전라남도 나주시 호수로 77(빛가람동)",
        "lat": 35.0168707372,
        "lng": 126.7904498881
    },
    {
        "title": "사라봉공원",
        "location": "제주특별자치도 제주시 사라봉동길 74",
        "lat": 33.5180620158,
        "lng": 126.5460485461
    },
    {
        "title": "사직공원(서울)",
        "location": "서울특별시 종로구 사직로 89(사직동)",
        "lat": 37.5757085419,
        "lng": 126.9676800810
    },
    {
        "title": "사파리 체험 테마파크",
        "location": "경기도 파주시 탄현면 법흥리",
        "lat": 37.7914896762,
        "lng": 126.6962487754
    },
    {
        "title": "산정랜드",
        "location": "경기도 포천시 영북면 산정리",
        "lat": 38.0685909395,
        "lng": 127.3243277121
    },
    {
        "title": "산청 동의보감촌",
        "location": "경상남도 산청군 동의보감로555번길 61",
        "lat": 35.4411518319,
        "lng": 127.8278558315
    },
    {
        "title": "삼익비치수변공원",
        "location": "부산광역시 수영구 광안해변로54번길 222(남천동)",
        "lat": 35.1462277346,
        "lng": 129.1152455049
    },
    {
        "title": "삿갓봉근린공원",
        "location": "서울특별시 노원구 한글비석로 346 노원구어린이도서관",
        "lat": 37.6580231480,
        "lng": 127.0763178356
    },
    {
        "title": "상트페테르부르크광장",
        "location": "인천광역시 중구 연안부두로 36 연안부두해양광장",
        "lat": 37.4555521170,
        "lng": 126.6018306996
    },
    {
        "title": "서울대공원",
        "location": "경기도 과천시 대공원광장로 102",
        "lat": 37.4278904825,
        "lng": 127.0171158655
    },
    {
        "title": "서울랜드",
        "location": "경기도 과천시 광명로 181(막계동)",
        "lat": 37.4336870644,
        "lng": 127.0188988734
    },
    {
        "title": "서재체육공원",
        "location": "대구광역시 달성군 다사읍 방천리",
        "lat": 35.8843305531,
        "lng": 128.5032259590
    },
    {
        "title": "석예원 본초 족욕 성산점",
        "location": "제주특별자치도 서귀포시 성산읍 섭지코지로25번길 342층",
        "lat": 33.4421097515,
        "lng": 126.9195734269
    },
    {
        "title": "석정온천휴스파",
        "location": "전라북도 고창군 고창읍 석정2로 173",
        "lat": 35.4320812865,
        "lng": 126.7410244472
    },
    {
        "title": "선비세상",
        "location": "경상북도 영주시 선비세상로 1 선비세상",
        "lat": 36.9308655790,
        "lng": 128.5853499251
    },
    {
        "title": "선원공원",
        "location": "대구광역시 달서구 용산동",
        "lat": 35.8595530192,
        "lng": 128.5149478354
    },
    {
        "title": "섬진강변 유원지",
        "location": "전라남도 곡성군 고달면 두가리",
        "lat": 35.2354392914,
        "lng": 127.3710098002
    },
    {
        "title": "소노벨 변산 오션플레이",
        "location": "전라북도 부안군 변산면 변산해변로 51",
        "lat": 35.6314013081,
        "lng": 126.4699824405
    },
    {
        "title": "소노벨 천안 오션어드벤처",
        "location": "충청남도 천안시 동남구 성남면 종합휴양지로 200(대명리조트)",
        "lat": 36.7576993761,
        "lng": 127.2239241377
    },
    {
        "title": "손흥민체육공원",
        "location": "강원특별자치도 춘천시 가락재로 40",
        "lat": 37.9018354532,
        "lng": 127.7777107141
    },
    {
        "title": "송파나루공원(석촌호수)",
        "location": "서울특별시 송파구 삼학사로 136",
        "lat": 37.5095713442,
        "lng": 127.0979728676
    },
    {
        "title": "송현근린공원",
        "location": "인천광역시 동구 솔빛로 51(송현동)",
        "lat": 37.4792278130,
        "lng": 126.6398849040
    },
    {
        "title": "수봉공원",
        "location": "인천광역시 미추홀구 수봉안길 84",
        "lat": 37.4598915854,
        "lng": 126.6633194142
    },
    {
        "title": "수협효시공원",
        "location": "경상남도 거제시 사등면 가조서로 7",
        "lat": 34.9295745590,
        "lng": 128.5251721500
    },
    {
        "title": "신석체육공원",
        "location": "인천광역시 서구 길주로 39(석남동)",
        "lat": 37.5079165993,
        "lng": 126.6656206463
    },
    {
        "title": "신트리공원",
        "location": "인천광역시 부평구 신트리로 21",
        "lat": 37.5064928445,
        "lng": 126.7266067880
    },
    {
        "title": "신평소공원",
        "location": "부산광역시 기장군 일광면 일광로 582-47",
        "lat": 35.2927167929,
        "lng": 129.2600538672
    },
    {
        "title": "아암도해안공원",
        "location": "인천광역시 연수구 아암대로 612",
        "lat": 37.4139631657,
        "lng": 126.6393923145
    },
    {
        "title": "안동 장승공원",
        "location": "경상북도 안동시 풍천면 전서로 159",
        "lat": 36.5518468139,
        "lng": 128.5306935716
    },
    {
        "title": "안양 평촌중앙공원",
        "location": "경기도 안양시 동안구 관평로 149(평촌동)",
        "lat": 37.3899105162,
        "lng": 126.9590249935
    },
    {
        "title": "약대울체육공원",
        "location": "경기도 남양주시 경춘로1283번길 46(평내동)",
        "lat": 37.6515711367,
        "lng": 127.2305761855
    },
    {
        "title": "양구군민공원",
        "location": "강원특별자치도 양구군 양구읍 양남로7번길 13",
        "lat": 38.1060462445,
        "lng": 127.9908962710
    },
    {
        "title": "양지체육공원",
        "location": "경기도 용인시 처인구 양지면 양대로 52",
        "lat": 37.2365841908,
        "lng": 127.2886021812
    },
    {
        "title": "양천해누리체육공원",
        "location": "서울특별시 양천구 안양천로 711(신정동)",
        "lat": 37.5115920667,
        "lng": 126.8724127952
    },
    {
        "title": "에코랜드",
        "location": "경기도 남양주시 별내면 광전리",
        "lat": 37.7035937731,
        "lng": 127.1275174175
    },
    {
        "title": "에코랜드테마파크",
        "location": "제주특별자치도 제주시 조천읍 번영로 1278-169",
        "lat": 33.4564874302,
        "lng": 126.6670616591
    },
    {
        "title": "엘리몽",
        "location": "대구광역시 달서구 조암로 38(월성동)",
        "lat": 35.8250210143,
        "lng": 128.5256756252
    },
    {
        "title": "여수 미남크루즈",
        "location": "전라남도 여수시 돌산읍 돌산로 3617-22",
        "lat": 34.7294941639,
        "lng": 127.7372822199
    },
    {
        "title": "연미산 자연미술공원",
        "location": "충청남도 공주시 우성면 연미산고개길 98(우성면)",
        "lat": 36.4735465325,
        "lng": 127.1026011129
    },
    {
        "title": "연천 고랑포구 역사공원",
        "location": "경기도 연천군 장남면 장남로 270",
        "lat": 37.9880861063,
        "lng": 126.8477320610
    },
    {
        "title": "영산강둔치체육공원",
        "location": "전라남도 나주시 삼영동",
        "lat": 35.0015043783,
        "lng": 126.7052105767
    },
    {
        "title": "영일대 호수공원",
        "location": "경상북도 포항시 남구 행복길75번길 11(대잠동)",
        "lat": 36.0147980115,
        "lng": 129.3345658053
    },
    {
        "title": "영일만온천",
        "location": "경상북도 포항시 남구 대송면 운제로386번길 21",
        "lat": 35.9529194075,
        "lng": 129.3614568976
    },
    {
        "title": "영종진공원",
        "location": "인천광역시 중구 구읍로 63(중산동)",
        "lat": 37.4891227900,
        "lng": 126.5777264136
    },
    {
        "title": "오가낭뜰근린공원",
        "location": "세종특별자치시  바른3길 26-1 오가낭뜰 근린공원 공중화장실(4동)",
        "lat": 36.5220130966,
        "lng": 127.2542750779
    },
    {
        "title": "오산 미니어처빌리지",
        "location": "경기도 오산시 내삼미동",
        "lat": 37.1774008694,
        "lng": 127.0626437519
    },
    {
        "title": "오치골공원",
        "location": "울산광역시 북구 양정동 512-3(양정동)",
        "lat": 35.5501319600,
        "lng": 129.3876105455
    },
    {
        "title": "오포생활체육공원",
        "location": "경기도 광주시 오포읍 양촌길 77",
        "lat": 37.3706900607,
        "lng": 127.2426581059
    },
    {
        "title": "옥천금강수변친수공원",
        "location": "충청북도 옥천군 동이면 적하길 349",
        "lat": 36.2881579086,
        "lng": 127.6435355217
    },
    {
        "title": "옥포수변공원",
        "location": "경상남도 거제시 옥포로2길 7(옥포동)",
        "lat": 34.8902681545,
        "lng": 128.6965082797
    },
    {
        "title": "외도와현유람선",
        "location": "경상남도 거제시 일운면 와현해변길 46",
        "lat": 34.8118576186,
        "lng": 128.7047596467
    },
    {
        "title": "용머리 공원",
        "location": "강원특별자치도 양구군 파로호로869번길 109",
        "lat": 38.1221525378,
        "lng": 127.9822937880
    },
    {
        "title": "용인 대장금파크",
        "location": "경기도 용인시 처인구 백암면 용천드라마길 25",
        "lat": 37.1194958184,
        "lng": 127.3371066486
    },
    {
        "title": "울산대공원",
        "location": "울산광역시 남구 대공원로 94",
        "lat": 35.5308045918,
        "lng": 129.2940414740
    },
    {
        "title": "월광수변공원",
        "location": "대구광역시 달서구 월곡로 5(도원동)",
        "lat": 35.7988438375,
        "lng": 128.5483299101
    },
    {
        "title": "윗골공원",
        "location": "부산광역시 기장군 정관읍 정관8로 11",
        "lat": 35.3239395332,
        "lng": 129.1776379536
    },
    {
        "title": "이곡장미공원",
        "location": "대구 달서구 이곡동 1306-6",
        "lat": 35.8581254007,
        "lng": 128.5148117758
    },
    {
        "title": "이석영광장",
        "location": "경기도 남양주시 금곡동",
        "lat": 37.6328784311,
        "lng": 127.2066788984
    },
    {
        "title": "이충레포츠공원",
        "location": "경기도 평택시 장안웃길 149(이충동)",
        "lat": 37.0661277645,
        "lng": 127.0707461120
    },
    {
        "title": "이충분수공원",
        "location": "경기도 평택시 이충동",
        "lat": 37.0653944550,
        "lng": 127.0673797700
    },
    {
        "title": "인천대공원 반려동물 놀이터",
        "location": "인천광역시 남동구 무네미로 236인천대공원 내(제 1주차장 축구장 뒤편)",
        "lat": 37.4577461335,
        "lng": 126.7493033010
    },
    {
        "title": "인천대공원 어린이동물원",
        "location": "인천광역시 남동구 무네미로 236 인천대공원사업소",
        "lat": 37.4577461335,
        "lng": 126.7493033010
    },
    {
        "title": "인천로봇랜드",
        "location": "인천광역시 서구 로봇랜드로 155-11(청라동)",
        "lat": 37.5196975976,
        "lng": 126.6109530869
    },
    {
        "title": "임고강변공원",
        "location": "경상북도 영천시 임고면 덕연리132-8",
        "lat": 36.0463435135,
        "lng": 128.9920283375
    },
    {
        "title": "임진강 황포돛배",
        "location": "경기도 파주시 적성면 율곡로 1857",
        "lat": 37.9650701065,
        "lng": 126.8897010962
    },
    {
        "title": "임항선 그린웨이",
        "location": "경상남도 창원시 마산합포구 월포동(월포동)",
        "lat": 35.1892850496,
        "lng": 128.5645534496
    },
    {
        "title": "자구리문화예술공원 (자구리공원)",
        "location": "제주 서귀포시 서귀동 70-1",
        "lat": 33.2434538416,
        "lng": 126.5690860868
    },
    {
        "title": "장대공원",
        "location": "전라남도 순천시 역전길 127",
        "lat": 34.9501818863,
        "lng": 127.4949256248
    },
    {
        "title": "장사도 유람선",
        "location": "경상남도 거제시 남부면 근포1길 71",
        "lat": 34.7204823536,
        "lng": 128.5862834630
    },
    {
        "title": "장생포 고래바다여행선",
        "location": "울산광역시 남구 장생포고래로 244",
        "lat": 35.5028149271,
        "lng": 129.3808541361
    },
    {
        "title": "장수공원(열녀문)",
        "location": "서울특별시 양천구 신월동",
        "lat": 37.5219126202,
        "lng": 126.8460843492
    },
    {
        "title": "장승포수변공원",
        "location": "경상남도 거제시 장승로 146-12",
        "lat": 34.8670018423,
        "lng": 128.7259341181
    },
    {
        "title": "장안남산체육공원",
        "location": "경기도 화성시 장안면 사랑리 689",
        "lat": 37.0781444152,
        "lng": 126.8347365967
    },
    {
        "title": "제주별빛누리공원",
        "location": "제주특별자치도 제주시 선돌목동길 60(오등동)",
        "lat": 33.4445757549,
        "lng": 126.5492471590
    },
    {
        "title": "조선수군재건출정공원",
        "location": "전라남도 구례군 구례읍 봉북리258번지 일대",
        "lat": 35.2137183589,
        "lng": 127.4645354464
    },
    {
        "title": "조천연꽃공원",
        "location": "세종특별자치시 조치원읍 번암리 226",
        "lat": 36.5853122145,
        "lng": 127.3007052959
    },
    {
        "title": "종포 해양공원",
        "location": "전라남도 여수시 이순신광장로 146",
        "lat": 34.7373266625,
        "lng": 127.7397262519
    },
    {
        "title": "주렁주렁 동탄라크몽점",
        "location": "경기도 화성시 송동",
        "lat": 37.1669417270,
        "lng": 127.1051707463
    },
    {
        "title": "죽림폭포공원",
        "location": "전라북도 정읍시 천변로 176(연지동)",
        "lat": 35.5637598347,
        "lng": 126.8484032341
    },
    {
        "title": "쥬라리움 파주점",
        "location": "경기도 파주시 탄현면 새오리로 69",
        "lat": 37.7904757053,
        "lng": 126.6850109448
    },
    {
        "title": "증산공원",
        "location": "부산광역시 동구 성북로36번길 46 (범일동)",
        "lat": 35.1379469323,
        "lng": 129.0516845930
    },
    {
        "title": "지평레포츠공원",
        "location": "경기도 양평군 지평면 송정길 128",
        "lat": 37.4900000151,
        "lng": 127.6324554526
    },
    {
        "title": "진도개테마파크",
        "location": "전라남도 진도군 진도읍 성죽골길 30",
        "lat": 34.4823946639,
        "lng": 126.2785746191
    },
    {
        "title": "진주휴게소반려견놀이터",
        "location": "경상남도 진주시 남해고속도로 194 진주휴게소",
        "lat": 35.1597332034,
        "lng": 128.1220068512
    },
    {
        "title": "창원단감테마공원",
        "location": "경상남도 창원시 의창구 동읍 동읍로359번길 27",
        "lat": 35.2991939440,
        "lng": 128.6632724090
    },
    {
        "title": "천동관광지",
        "location": "충청북도 단양군 단양읍 다리안로 534",
        "lat": 36.9733269923,
        "lng": 128.4177192229
    },
    {
        "title": "천왕근린공원",
        "location": "서울특별시 구로구 천왕동",
        "lat": 37.4764678238,
        "lng": 126.8418082369
    },
    {
        "title": "청라호수공원",
        "location": "인천광역시 서구 크리스탈로 59(경서동)",
        "lat": 37.5305967767,
        "lng": 126.6362810266
    },
    {
        "title": "청주랜드",
        "location": "충청북도 청주시 상당구 명암로 171(명암동)",
        "lat": 36.6505807918,
        "lng": 127.5157592034
    },
    {
        "title": "춘천시 반려견놀이터 같이놀개",
        "location": "강원특별자치도 춘천시 영서로 3282",
        "lat": 37.9416101578,
        "lng": 127.7122821547
    },
    {
        "title": "카덴96",
        "location": "부산광역시 기장군 일광읍 화전리9-6",
        "lat": 35.2895388916,
        "lng": 129.2343284163
    },
    {
        "title": "큰재봉공원",
        "location": "경기도 화성시 동탄중앙로 410-30(석우동)",
        "lat": 37.2144385876,
        "lng": 127.0814549020
    },
    {
        "title": "테마파크 소풍",
        "location": "전라남도 화순군 도곡면 지석로 1202-7",
        "lat": 34.9962947855,
        "lng": 126.9264022861
    },
    {
        "title": "테미공원",
        "location": "대전광역시 중구 보문로199번길 37-36(대흥동)",
        "lat": 36.3192226254,
        "lng": 127.4218489142
    },
    {
        "title": "통도환타지아",
        "location": "경상남도 양산시 하북면 통도7길 68",
        "lat": 35.4985348155,
        "lng": 129.0823886334
    },
    {
        "title": "팔공산온천관광호텔(온천)",
        "location": "대구광역시 동구 팔공산로185길 11",
        "lat": 35.9909719627,
        "lng": 128.6922396491
    },
    {
        "title": "팝스월드 다자구할미네",
        "location": "충청북도 단양군 단양읍 기촌리107 팝스월드 다자구할미네",
        "lat": 36.9813507295,
        "lng": 128.3995233948
    },
    {
        "title": "포천축구공원",
        "location": "경기도 포천시 신북면 만세교리",
        "lat": 37.9537556206,
        "lng": 127.2428163147
    },
    {
        "title": "하계어린이공원",
        "location": "서울특별시 노원구 하계동2동 273-3",
        "lat": 37.6321788036,
        "lng": 127.0692081102
    },
    {
        "title": "학익에코테마파크",
        "location": "인천광역시 중구 서해대로94번길 93(신흥동3가)",
        "lat": 37.4353160511,
        "lng": 126.6286121506
    },
    {
        "title": "핫들생태공원",
        "location": "경상남도 합천군 합천읍 영창리",
        "lat": 35.5740900698,
        "lng": 128.1659113909
    },
    {
        "title": "해마루공원",
        "location": "경상북도 구미시 해마루공원로 86(옥계동)",
        "lat": 36.1417083371,
        "lng": 128.4300835761
    },
    {
        "title": "해맞이공원",
        "location": "경상남도 고성군 동해면 조선특구로 2084",
        "lat": 35.0596647139,
        "lng": 128.4790727158
    },
    {
        "title": "현풍 500년 느티나무 테마공원",
        "location": "대구광역시 달성군 현풍면 비슬로 741(현풍면)",
        "lat": 35.7018777878,
        "lng": 128.4383061567
    },
    {
        "title": "호산공원",
        "location": "대구광역시 달서구 달서대로109길 70(호산동)",
        "lat": 35.8490258649,
        "lng": 128.4839536368
    },
    {
        "title": "화동못수변공원",
        "location": "울산광역시 북구 화봉동 324-3",
        "lat": 35.5921547698,
        "lng": 129.3747354806
    },
    {
        "title": "화조원",
        "location": "제주특별자치도 제주시 애월읍 애원로 804",
        "lat": 33.4113377321,
        "lng": 126.3720160859
    },
    {
        "title": "환호공원",
        "location": "경상북도 포항시 북구 환호공원길 30",
        "lat": 36.0677292517,
        "lng": 129.3930424759
    },
    {
        "title": "황금산문화공원",
        "location": "경기도 남양주시 지금동719",
        "lat": 37.6051531673,
        "lng": 127.1676165829
    },
    {
        "title": "황령산레포츠공원",
        "location": "부산광역시 부산진구 전포동",
        "lat": 35.1569063584,
        "lng": 129.0754181212
    },
    {
        "title": "휴림",
        "location": "제주특별자치도 제주시 애월읍 광령남서길 40",
        "lat": 33.4438100372,
        "lng": 126.4287993085
    },
    {
        "title": "휴애리자연생활공원",
        "location": "제주특별자치도 서귀포시 남원읍 신례동로 256",
        "lat": 33.3085171454,
        "lng": 126.6344317363
    },
    {
        "title": "히어로테마파크 정관점",
        "location": "부산광역시 기장군 정관읍 정관중앙로 45탑스퀘어 5층 히어로플레이파크 부산정관점",
        "lat": 35.3212315161,
        "lng": 129.1783074147
    },
    {
        "title": "PTP 애견테마파크",
        "location": "전라북도 익산시 진북로 294-18",
        "lat": 36.0311316600,
        "lng": 127.0112599577
    },
    {
        "title": "가평 현충탑",
        "location": "경기도 가평군 가평읍 호반로 2540",
        "lat": 37.8126354086,
        "lng": 127.5157483134
    },
    {
        "title": "석포전망대",
        "location": "경상북도 울릉군 북면 천부리(북면)",
        "lat": 37.5389059153,
        "lng": 130.9021779272
    },
    {
        "title": "위라리칠층석탑",
        "location": "강원특별자치도 화천군 하남면 위라리",
        "lat": 38.0975641387,
        "lng": 127.7086444956
    },
    {
        "title": "수암골전망대",
        "location": "충청북도 청주시 상당구 수동로5번길 2(수동) 부근",
        "lat": 36.6456615476,
        "lng": 127.4954667156
    },
    {
        "title": "사근진해중공원 전망대",
        "location": "강원특별자치도 강릉시 해안로604번길 16",
        "lat": 37.8127616594,
        "lng": 128.8988285332
    },
    {
        "title": "남애항 스카이워크 전망대",
        "location": "강원특별자치도 양양군 현남면 매바위길 138",
        "lat": 37.9451191407,
        "lng": 128.7868845282
    },
    {
        "title": "하조대전망대",
        "location": "강원특별자치도 양양군 현북면 하륜길 54",
        "lat": 38.0219924170,
        "lng": 128.7285401922
    },
    {
        "title": "양산천 구름다리",
        "location": "경상남도 양산시 양산대로 849",
        "lat": 35.3447400539,
        "lng": 129.0322278313
    },
    {
        "title": "오두산 통일전망대",
        "location": "경기도 파주시 탄현면 필승로 369",
        "lat": 37.7732303565,
        "lng": 126.6772704746
    },
    {
        "title": "장수대",
        "location": "강원특별자치도 인제군 북면 설악로 4193",
        "lat": 38.1194236071,
        "lng": 128.3418528071
    },
    {
        "title": "녹사평 육교",
        "location": "서울특별시 용산구 이태원동 406",
        "lat": 37.5351830489,
        "lng": 126.9873738776
    },
    {
        "title": "을지전망대",
        "location": "강원특별자치도 양구군 해안면 후리 621후리 621",
        "lat": 38.2901915991,
        "lng": 128.1452571178
    },
    {
        "title": "단양 향산리 삼층석탑",
        "location": "충청북도 단양군 향산1길 24 향산리삼층석탑",
        "lat": 37.0543065796,
        "lng": 128.4177585178
    },
    {
        "title": "당진 안국사지 석탑",
        "location": "충청남도 당진시 정미면 원당골1길 188",
        "lat": 36.8319707779,
        "lng": 126.5572517452
    },
    {
        "title": "남산서울타워",
        "location": "서울특별시 용산구 남산공원길 105",
        "lat": 37.5511089858,
        "lng": 126.9878983791
    },
    {
        "title": "부여 정림사지 오층석탑 [유네스코 세계유산]",
        "location": "충청남도 부여군 부여읍 정림로 83",
        "lat": 36.2797320991,
        "lng": 126.9132621678
    },
    {
        "title": "도담삼봉 음악분수",
        "location": "충청북도 단양군 매포읍 삼봉로 644-13",
        "lat": 37.0007696372,
        "lng": 128.3417752212
    },
    {
        "title": "광주 3·1 만세운동 기념비",
        "location": "광주광역시 남구 백서로 13(양림동)",
        "lat": 35.1367619930,
        "lng": 126.9096947007
    },
    {
        "title": "해저터널(통영)",
        "location": "경상남도 통영시 당동",
        "lat": 34.8358913291,
        "lng": 128.4111151131
    },
    {
        "title": "정몽주 동상",
        "location": "서울특별시 마포구 합정동401-2",
        "lat": 37.5483329084,
        "lng": 126.9097666887
    },
    {
        "title": "소양강댐",
        "location": "강원특별자치도 춘천시 신북읍 신샘밭로 1128",
        "lat": 37.9487918001,
        "lng": 127.8150725784
    },
    {
        "title": "63스퀘어",
        "location": "서울특별시 영등포구 63로 36",
        "lat": 37.5198673186,
        "lng": 126.9403285961
    },
    {
        "title": "우륵기념탑",
        "location": "경상북도 고령군 대가야읍 주산순환길 209-18",
        "lat": 35.7377373427,
        "lng": 128.2703921899
    },
    {
        "title": "청남대",
        "location": "충청북도 청주시 상당구 문의면 청남대길 646",
        "lat": 36.4622380327,
        "lng": 127.4900889125
    },
    {
        "title": "짱뚱어다리",
        "location": "전라남도 신안군 증도면 대초리",
        "lat": 34.9910878394,
        "lng": 126.1358695722
    },
    {
        "title": "부산광안대교",
        "location": "부산광역시 해운대구 수영강변대로 203",
        "lat": 35.1449947568,
        "lng": 129.1270084045
    },
    {
        "title": "의견비",
        "location": "전라북도 임실군 오수면 오수3길 5(오수면) 부근",
        "lat": 35.5371461152,
        "lng": 127.3288751776
    },
    {
        "title": "고성 통일전망타워",
        "location": "강원특별자치도 고성군 현내면 금강산로 481",
        "lat": 38.5147706205,
        "lng": 128.4173974953
    },
    {
        "title": "울산 태화사지 십이지상 사리탑",
        "location": "울산광역시 남구 두왕로 277(신정동)",
        "lat": 35.5271580556,
        "lng": 129.3087097418
    },
    {
        "title": "박두진 시비",
        "location": "경기도 안성시 보개면 종합운동장로 205",
        "lat": 37.0155520070,
        "lng": 127.3231163819
    },
    {
        "title": "열쇠전망대",
        "location": "경기도 연천군 신서면 동내로 1375-1",
        "lat": 38.1551886234,
        "lng": 127.1441500105
    },
    {
        "title": "백석산지구 전투전적비",
        "location": "강원특별자치도 양구군 방산면 송현리 233",
        "lat": 38.2441485349,
        "lng": 127.9356332233
    },
    {
        "title": "망향의 동산(횡성)",
        "location": "강원특별자치도 횡성군 갑천면 태기로구방5길 40(갑천면)",
        "lat": 37.5460293905,
        "lng": 128.0673505623
    },
    {
        "title": "강원 경찰충혼탑",
        "location": "강원특별자치도 춘천시 서면 박사로 1210(서면) 부근",
        "lat": 37.9165380832,
        "lng": 127.7126856416
    },
    {
        "title": "서상리삼층석탑",
        "location": "강원특별자치도 춘천시 서면",
        "lat": 37.9462121617,
        "lng": 127.6995581775
    },
    {
        "title": "윤희순여사 동상",
        "location": "강원특별자치도 춘천시 옛경춘로 830-24(삼천동) 춘천시립도서관 내",
        "lat": 37.8701601164,
        "lng": 127.7110621665
    },
    {
        "title": "속초 엑스포타워",
        "location": "강원특별자치도 속초시 엑스포로 72",
        "lat": 38.1916754178,
        "lng": 128.5831286429
    },
    {
        "title": "삼척 척주동해비 및 평수토찬비",
        "location": "강원특별자치도 삼척시 미수2길 17",
        "lat": 37.4361523341,
        "lng": 129.1820869505
    },
    {
        "title": "소망의탑",
        "location": "강원특별자치도 삼척시 새천년도로 233",
        "lat": 37.4504008277,
        "lng": 129.1889386764
    },
    {
        "title": "소양강처녀상",
        "location": "강원특별자치도 춘천시 영서로 2675(근화동)",
        "lat": 37.8934354331,
        "lng": 127.7242936044
    },
    {
        "title": "부여 세탑리오층석탑",
        "location": "충청남도 부여군 초촌면",
        "lat": 36.2771258940,
        "lng": 127.0184083686
    },
    {
        "title": "남해 척화비",
        "location": "경상남도 남해군 설천면 노량로183번길 29",
        "lat": 34.9413145061,
        "lng": 127.8761396441
    },
    {
        "title": "신선대 전망대",
        "location": "경상남도 거제시 남부면 갈곶리산 21-19",
        "lat": 34.7373624372,
        "lng": 128.6648928581
    },
    {
        "title": "망끝전망대",
        "location": "전라남도 완도군 보길면 정자리 산 148-6",
        "lat": 34.1396783671,
        "lng": 126.5057599391
    },
    {
        "title": "나만갑선생신도비",
        "location": "경기도 구리시 사노동",
        "lat": 37.6344686302,
        "lng": 127.1358880788
    },
    {
        "title": "춘천댐",
        "location": "강원특별자치도 춘천시 서면 오월리",
        "lat": 37.9736662019,
        "lng": 127.6407432790
    },
    {
        "title": "강진 월남사지 진각국사비",
        "location": "전라남도 강진군 성전면 월남1길 106-1",
        "lat": 34.7427086120,
        "lng": 126.7107358718
    },
    {
        "title": "세종대왕 동상",
        "location": "서울특별시 종로구 세종대로 175(세종로)",
        "lat": 37.5721757834,
        "lng": 126.9768376800
    },
    {
        "title": "남산 팔각정",
        "location": "서울 중구 예장동 8-1",
        "lat": 37.5516394747,
        "lng": 126.9876206116
    },
    {
        "title": "태종대 전망대",
        "location": "부산광역시 영도구 전망로 24",
        "lat": 35.0503990718,
        "lng": 129.0883893471
    },
    {
        "title": "이월드 83타워",
        "location": "대구광역시 달서구 두류공원로 200(두류동)",
        "lat": 35.8532824570,
        "lng": 128.5665879034
    },
    {
        "title": "하멜기념비",
        "location": "제주특별자치도 서귀포시 안덕면 사계리 112-3",
        "lat": 33.2337481229,
        "lng": 126.3146500324
    },
    {
        "title": "광주지산동오층석탑",
        "location": "광주광역시 동구 지산로 58(지산동)",
        "lat": 35.1489026847,
        "lng": 126.9330951059
    },
    {
        "title": "충무교와 통영운하",
        "location": "경상남도 통영시 당동",
        "lat": 34.8344720129,
        "lng": 128.4094208528
    },
    {
        "title": "평화의댐(화천)",
        "location": "강원특별자치도 화천군 화천읍 평화로 3481-18",
        "lat": 38.2132809524,
        "lng": 127.8435842372
    },
    {
        "title": "충주댐",
        "location": "충청북도 충주시 충주호수로 737(종민동)",
        "lat": 37.0044598981,
        "lng": 127.9905954959
    },
    {
        "title": "경찰혼",
        "location": "서울특별시 영등포구 국회대로 608(당산동3가)",
        "lat": 37.5263408571,
        "lng": 126.9006431406
    },
    {
        "title": "고하송진우선생동상",
        "location": "서울특별시 광진구 능동로 216(능동) 서울어린이대공원 내",
        "lat": 37.5488358400,
        "lng": 127.0763931608
    },
    {
        "title": "나석주의사동상",
        "location": "서울특별시 중구 을지로 66(을지로2가) 외환은행 본점 앞",
        "lat": 37.5655100385,
        "lng": 126.9850482312
    },
    {
        "title": "순국선열추념탑",
        "location": "서울특별시 서대문구 독립문공원길 80(현저동)",
        "lat": 37.5729253140,
        "lng": 126.9555284897
    },
    {
        "title": "해공신익희선생동상",
        "location": "서울특별시 강동구 천호3동 448-49호 (천호동 마을마당 내)",
        "lat": 37.5363494014,
        "lng": 127.1318412470
    },
    {
        "title": "병방치 스카이워크",
        "location": "강원특별자치도 정선군 정선읍 병방치길 225",
        "lat": 37.3623780337,
        "lng": 128.6354715236
    },
    {
        "title": "속동전망대",
        "location": "충청남도 홍성군 서부면 남당항로 689",
        "lat": 36.5768041393,
        "lng": 126.4644113664
    },
    {
        "title": "김민부전망대",
        "location": "부산광역시 동구 영초윗길26번길 11(초량동)",
        "lat": 35.1177100066,
        "lng": 129.0352504641
    },
    {
        "title": "유치환 우체통 전망대",
        "location": "부산광역시 동구 망양로580번길 2(초량동)",
        "lat": 35.1221122650,
        "lng": 129.0338310231
    },
    {
        "title": "밀마루전망대",
        "location": "세종특별자치시 도움3로 58(어진동)",
        "lat": 36.5054483572,
        "lng": 127.2558420543
    },
    {
        "title": "롯데월드타워&롯데월드몰",
        "location": "서울특별시 송파구 올림픽로 300",
        "lat": 37.5126349603,
        "lng": 127.1025918048
    },
    {
        "title": "장항 스카이워크 (기벌포 해전 전망대)",
        "location": "충청남도 서천군 장항산단로34번길 122-16",
        "lat": 36.0185660349,
        "lng": 126.6655773055
    },
    {
        "title": "여차 홍포전망대",
        "location": "경상남도 거제시 남부면 다포리산 38-145",
        "lat": 34.7037540926,
        "lng": 128.6101762723
    },
    {
        "title": "강진 월남사지 삼층석탑",
        "location": "전라남도 강진군 성전면 월남1길 100(성전면)",
        "lat": 34.7429808133,
        "lng": 126.7113274801
    },
    {
        "title": "이충무공사적비",
        "location": "충청남도 아산시 온천대로 1496",
        "lat": 36.7833452585,
        "lng": 127.0013518223
    },
    {
        "title": "더베이101",
        "location": "부산광역시 해운대구 동백로 52",
        "lat": 35.1566216976,
        "lng": 129.1520975710
    },
    {
        "title": "고흥우주발사전망대",
        "location": "전라남도 고흥군 영남면 해맞이로 840",
        "lat": 34.5850116756,
        "lng": 127.4923045005
    },
    {
        "title": "금강산전기철도교량",
        "location": "강원특별자치도 철원군 철원읍 평화로 3591",
        "lat": 38.2575770502,
        "lng": 127.1663088494
    },
    {
        "title": "소양강스카이워크",
        "location": "강원특별자치도 춘천시 영서로 2663(근화동)",
        "lat": 37.8934354331,
        "lng": 127.7242936044
    },
    {
        "title": "회룡포전망대",
        "location": "경상북도 예천군 용궁면 회룡대길 168(용궁면)",
        "lat": 36.5801090086,
        "lng": 128.3147342049
    },
    {
        "title": "창선교와 원시어업 죽방렴",
        "location": "경상남도 남해군 삼동면 지족리",
        "lat": 34.8325149866,
        "lng": 128.0000205073
    },
    {
        "title": "무섬 외나무다리",
        "location": "경상북도 영주시 문수면 무섬로234번길 31-12",
        "lat": 36.7309391651,
        "lng": 128.6217469615
    },
    {
        "title": "안동 조탑리 오층전탑",
        "location": "경상북도 안동시 일직면 조탑리",
        "lat": 36.4823400348,
        "lng": 128.6351640656
    },
    {
        "title": "양양 진전사지 삼층석탑",
        "location": "강원특별자치도 양양군 강현면 화채봉길 313(강현면)",
        "lat": 38.1209968785,
        "lng": 128.5495672242
    },
    {
        "title": "산청 법계사 삼층석탑",
        "location": "경상남도 산청군 시천면 지리산대로 320-292",
        "lat": 35.3275963631,
        "lng": 127.7359835778
    },
    {
        "title": "의림사 삼층석탑",
        "location": "경상남도 창원시 마산합포구 진북면 의림로 382",
        "lat": 35.1384690604,
        "lng": 128.4400406917
    },
    {
        "title": "취병조형유허비",
        "location": "광주광역시 광산구 비아안길 19",
        "lat": 35.2208120504,
        "lng": 126.8173729858
    },
    {
        "title": "돌산대교",
        "location": "전라남도 여수시 돌산읍 돌산로 3617-7(돌산읍)",
        "lat": 34.7302246350,
        "lng": 127.7371127721
    },
    {
        "title": "가우도 출렁다리",
        "location": "전라남도 강진군 도암면 신기리",
        "lat": 34.5288669609,
        "lng": 126.7717356912
    },
    {
        "title": "삼천포대교공원",
        "location": "경상남도 사천시 사천대로 17",
        "lat": 34.9324602603,
        "lng": 128.0522577966
    },
    {
        "title": "최초석탄발견지탑",
        "location": "강원특별자치도 태백시 금천길 36",
        "lat": 37.1039063943,
        "lng": 128.9984467999
    },
    {
        "title": "도라전망대",
        "location": "경기도 파주시 장단면 제3땅굴로 310",
        "lat": 37.9088872381,
        "lng": 126.7047863286
    },
    {
        "title": "원주 소금산 출렁다리",
        "location": "강원특별자치도 원주시 지정면 소금산길 12",
        "lat": 37.3646293574,
        "lng": 127.8340575195
    },
    {
        "title": "포천 한탄강 하늘다리",
        "location": "경기도 포천시 영북면 비둘기낭길 207",
        "lat": 38.0838094455,
        "lng": 127.2188230374
    },
    {
        "title": "산타우체국",
        "location": "강원특별자치도 화천군 화천읍 산수화로 10",
        "lat": 38.1071490826,
        "lng": 127.7060000051
    },
    {
        "title": "칠성전망대",
        "location": "강원특별자치도 화천군 상서면 주파령로 4",
        "lat": 38.2108973017,
        "lng": 127.6642395938
    },
    {
        "title": "해산전망대",
        "location": "강원특별자치도 화천군 화천읍 동촌리 산11-7",
        "lat": 38.1979629174,
        "lng": 127.8235476431
    },
    {
        "title": "피니시타워",
        "location": "강원특별자치도 화천군 하남면 춘화로 3331-50",
        "lat": 38.0964557659,
        "lng": 127.6996009099
    },
    {
        "title": "감악산 출렁다리",
        "location": "경기도 파주시 설마천로 238",
        "lat": 37.9382770580,
        "lng": 126.9476076720
    },
    {
        "title": "평창 스키점프 전망대",
        "location": "강원특별자치도 평창군 대관령면 솔봉로 325",
        "lat": 37.6602582361,
        "lng": 128.6720675507
    },
    {
        "title": "경주 양남 주상절리 전망대",
        "location": "경상북도 경주시 양남면 동해안로 498-13",
        "lat": 35.6890734835,
        "lng": 129.4719020226
    },
    {
        "title": "의암스카이워크",
        "location": "강원특별자치도 춘천시 칠전동 485",
        "lat": 37.8471622126,
        "lng": 127.6799656772
    },
    {
        "title": "예당호 출렁다리(음악분수)",
        "location": "충청남도 예산군 응봉면 예당관광로 161",
        "lat": 36.6395722048,
        "lng": 126.8023375444
    },
    {
        "title": "영도 흰여울해안터널",
        "location": "부산 영도구 영선동4가 1044-6",
        "lat": 35.0779590845,
        "lng": 129.0453201165
    },
    {
        "title": "삼방동전망대",
        "location": "강원특별자치도 태백시 삼방1길 2-28(철암동)",
        "lat": 37.1152725246,
        "lng": 129.0382401297
    },
    {
        "title": "울산대교 전망대",
        "location": "울산광역시 동구 봉수로 155-1(방어동)",
        "lat": 35.5017849664,
        "lng": 129.4062491748
    },
    {
        "title": "폭풍속으로 촬영지",
        "location": "경상북도 울진군 죽변면 등대길 74-14",
        "lat": 37.0591060004,
        "lng": 129.4285431897
    },
    {
        "title": "장성호 출렁다리(장성호 수변길)",
        "location": "전라남도 장성군 장성읍 봉덕리",
        "lat": 35.3660651552,
        "lng": 126.8230688307
    },
    {
        "title": "증평 좌구산 구름다리",
        "location": "충청북도 증평군 증평읍 솟점말길 107",
        "lat": 36.7056158066,
        "lng": 127.6511399762
    },
    {
        "title": "군위 화산산성 전망대",
        "location": "대구광역시 군위군 고로면 화산길 619-26",
        "lat": 36.0990640247,
        "lng": 128.7750237401
    },
    {
        "title": "청와대",
        "location": "서울특별시 종로구 청와대로 1 청와대",
        "lat": 37.5839799278,
        "lng": 126.9746792089
    },
    {
        "title": "반딧불이화장실",
        "location": "경기도 수원시 장안구 광교산로 166(하광교동)",
        "lat": 37.3018525882,
        "lng": 127.0322846942
    },
    {
        "title": "소호동동다리",
        "location": "전라남도 여수시 소호로 392(소호동)",
        "lat": 34.7388416231,
        "lng": 127.6508812064
    },
    {
        "title": "천사대교",
        "location": "전라남도 신안군 암태면 신석리",
        "lat": 34.8607556325,
        "lng": 126.1542849511
    },
    {
        "title": "무한의다리",
        "location": "전라남도 신안군 자은면",
        "lat": 34.9193141812,
        "lng": 126.0612640185
    },
    {
        "title": "거창 Y자형 출렁다리",
        "location": "경상남도 거창군 가조면 의상봉길 830",
        "lat": 35.7366638755,
        "lng": 128.0409208012
    },
    {
        "title": "퍼플교",
        "location": "전라남도 신안군 안좌면 소곡두리길 257-35",
        "lat": 34.7175434729,
        "lng": 126.1218801135
    },
    {
        "title": "전일빌딩245",
        "location": "광주광역시 동구 금남로 245(금남로1가)",
        "lat": 35.1483997205,
        "lng": 126.9187324992
    },
    {
        "title": "부산엑스더스카이",
        "location": "부산광역시 해운대구 달맞이길 30엘시티 랜드마크타워 98~100F",
        "lat": 35.1613825711,
        "lng": 129.1680432760
    },
    {
        "title": "말티재 전망대(말티고개)",
        "location": "충청북도 보은군 속리산면 속리산로 477",
        "lat": 36.4992475360,
        "lng": 127.7905054720
    },
    {
        "title": "아라마루 전망대(아라폭포)",
        "location": "인천광역시 계양구 아라로 228",
        "lat": 37.5726097091,
        "lng": 126.7014100172
    },
    {
        "title": "철원 한탄강 은하수교",
        "location": "강원특별자치도 철원군 동송읍 장흥리 725-12",
        "lat": 38.2003191307,
        "lng": 127.2776058809
    },
    {
        "title": "앞산 해넘이전망대",
        "location": "대구광역시 남구 대명동",
        "lat": 35.8322070451,
        "lng": 128.5655246933
    },
    {
        "title": "고하도 전망대",
        "location": "전라남도 목포시 고하도안길 234(달동)",
        "lat": 34.7779821890,
        "lng": 126.3592243617
    },
    {
        "title": "용추폭포 유리전망대",
        "location": "충청북도 제천시 의림지로 33(모산동)",
        "lat": 37.1741832958,
        "lng": 128.2080793747
    },
    {
        "title": "새우타워 전망대",
        "location": "인천광역시 남동구 아암대로 1550(논현동)",
        "lat": 37.3940143699,
        "lng": 126.7337148283
    },
    {
        "title": "설리스카이워크",
        "location": "경상남도 남해군 미조면 미송로303번길 176",
        "lat": 34.7085570405,
        "lng": 128.0231133495
    },
    {
        "title": "설악해맞이공원 인어연인상",
        "location": "강원특별자치도 속초시 동해대로 3664(대포동)",
        "lat": 38.1632070033,
        "lng": 128.6085577775
    },
    {
        "title": "대포항 전망대",
        "location": "강원특별자치도 속초시 대포항1길 16-8(대포동 753-7)",
        "lat": 38.1760054678,
        "lng": 128.6061992595
    },
    {
        "title": "멜라콩다리 비석",
        "location": "전라남도 목포시 호남동(호남동)",
        "lat": 34.7904978905,
        "lng": 126.3863994382
    },
    {
        "title": "금강보행교",
        "location": "세종특별자치시 연기면 세종리",
        "lat": 36.4836042238,
        "lng": 127.2888008038
    },
    {
        "title": "영주하늘눈전망대",
        "location": "부산광역시 중구 영주동 91-7(영주동)",
        "lat": 35.1146102693,
        "lng": 129.0307259427
    },
    {
        "title": "오이도 생명의나무",
        "location": "경기도 시흥시 오이도로 170(정왕동)",
        "lat": 37.3456108384,
        "lng": 126.6875037118
    },
    {
        "title": "적상산전망대",
        "location": "전라북도 무주군 적상면 산성로 359",
        "lat": 35.9649734835,
        "lng": 127.6975367132
    },
    {
        "title": "평화분수",
        "location": "경상북도 칠곡군 왜관읍 왜관리1350-29",
        "lat": 35.9989433662,
        "lng": 128.3959239148
    },
    {
        "title": "내장산 문화관광 음악분수 (내장산 워터파크)",
        "location": "전라북도 정읍시 내장호반로 37(쌍암동)",
        "lat": 35.5207877681,
        "lng": 126.8973999766
    },
    {
        "title": "달성보전망대",
        "location": "대구광역시 달성군 논공읍 비슬로 1193",
        "lat": 35.7365485378,
        "lng": 128.4202456845
    },
    {
        "title": "노래하는분수대",
        "location": "경기도 고양시 일산동구 호수로 731(장항동)",
        "lat": 37.6645000636,
        "lng": 126.7604548203
    },
    {
        "title": "천불천탑",
        "location": "경상남도 합천군 가회면 산두길 191-41",
        "lat": 35.4881837973,
        "lng": 128.0495906051
    },
    {
        "title": "오이도함상전망대",
        "location": "경기도 시흥시 오이도로 240(정왕동)",
        "lat": 37.3405836535,
        "lng": 126.6880510230
    },
    {
        "title": "사직공원전망타워",
        "location": "광주광역시 남구 사직길 49-1(사동)",
        "lat": 35.1416698036,
        "lng": 126.9115527465
    },
    {
        "title": "노암터널",
        "location": "강원특별자치도 강릉시 노암동 200-4(노암동)",
        "lat": 37.7481081912,
        "lng": 128.9071992254
    },
    {
        "title": "학전망대",
        "location": "경상북도 상주시 중동면 회상리 759-4",
        "lat": 36.4432321032,
        "lng": 128.2674617428
    },
    {
        "title": "방축천 음악분수",
        "location": "세종특별자치시 어진동",
        "lat": 36.4993463039,
        "lng": 127.2572170971
    },
    {
        "title": "금오산전망대",
        "location": "경상남도 하동군 금남면 경충로 493-223",
        "lat": 34.9920337230,
        "lng": 127.8709915620
    },
    {
        "title": "오륜대전망대",
        "location": "부산광역시 금정구 오륜대로 229(오륜동)",
        "lat": 35.2483912516,
        "lng": 129.1131428804
    },
    {
        "title": "양양하조대스카이워크",
        "location": "강원특별자치도 양양군 현북면 하륜길 54",
        "lat": 38.0218674283,
        "lng": 128.7283735439
    },
    {
        "title": "황룡원",
        "location": "경상북도 경주시 엑스포로 40(신평동)",
        "lat": 35.8368783771,
        "lng": 129.2900942554
    },
    {
        "title": "파로호전망대",
        "location": "강원특별자치도 화천군 간동면 파로호로 208",
        "lat": 38.0950489454,
        "lng": 127.7715499397
    },
    {
        "title": "승일교",
        "location": "강원특별자치도 철원군 갈말읍 내대리",
        "lat": 38.2043080100,
        "lng": 127.3023923787
    },
    {
        "title": "한빛탑",
        "location": "대전광역시 유성구 대덕대로 480(도룡동)",
        "lat": 36.3772070293,
        "lng": 127.3863644022
    },
    {
        "title": "칠포해오름전망대",
        "location": "포항시 북구 흥해읍 칠포리 산2-2",
        "lat": 36.1475841858,
        "lng": 129.3973703312
    },
    {
        "title": "의령구름다리",
        "location": "경상남도 의령군 의령읍 서동리 644-1",
        "lat": 35.3131350123,
        "lng": 128.2562521210
    },
    {
        "title": "죽도산전망대",
        "location": "경상북도 영덕군 축산면 축산항길 90",
        "lat": 36.5085248126,
        "lng": 129.4508633403
    },
    {
        "title": "백섬해상전망대",
        "location": "강원특별자치도 고성군 거진읍 거진리",
        "lat": 38.4487262643,
        "lng": 128.4536129346
    },
    {
        "title": "춘천칠층석탑",
        "location": "강원특별자치도 춘천시 소양로2가 162-2",
        "lat": 37.8853752660,
        "lng": 127.7246077044
    },
    {
        "title": "전망대활어회센터 (묵호항전망대)",
        "location": "강원특별자치도 동해시 일출로 88(묵호진동)",
        "lat": 37.5516099863,
        "lng": 129.1172503105
    },
    {
        "title": "델타루 (에코델타시티 전망대)",
        "location": "부산광역시 강서구 대저2동 5438-3",
        "lat": 35.1364113857,
        "lng": 128.9220570282
    },
    {
        "title": "간절곶소망우체통",
        "location": "울산광역시 울주군 서생면 대송리산110-22",
        "lat": 35.3588057199,
        "lng": 129.3611487843
    },
    {
        "title": "월정사팔각구층석탑",
        "location": "강원특별자치도 평창군 진부면 오대산로 374-8",
        "lat": 37.7317317795,
        "lng": 128.5931613749
    },
    {
        "title": "울진은어다리",
        "location": "경상북도 울진군 근남면 수산리178-2",
        "lat": 36.9774482477,
        "lng": 129.4065309631
    },
    {
        "title": "보문콜로세움",
        "location": "경상북도 경주시 보문로 132-16",
        "lat": 35.8526817337,
        "lng": 129.2681790576
    },
    {
        "title": "월미공원 월미전망대",
        "location": "인천광역시 중구 북성동1가125",
        "lat": 37.4694894475,
        "lng": 126.6053355493
    },
    {
        "title": "색현터널",
        "location": "경기도 가평군 청평면 상천리1628-3",
        "lat": 37.7880540381,
        "lng": 127.4671173516
    },
    {
        "title": "울돌목 스카이워크",
        "location": "전라남도 해남군 문내면 학동리1467-10",
        "lat": 34.5727960874,
        "lng": 126.3071810723
    },
    {
        "title": "후릿개다리",
        "location": "경상남도 거제시 다포4길 14",
        "lat": 34.7302513589,
        "lng": 128.6225911638
    },
    {
        "title": "동생말전망대",
        "location": "부산광역시 남구 분포로 66-40",
        "lat": 35.1322571676,
        "lng": 129.1201732372
    },
    {
        "title": "끝등 전망대",
        "location": "전라남도 여수시 돌산읍 금성리산 221-10",
        "lat": 34.5881578476,
        "lng": 127.7749769530
    },
    {
        "title": "묘도 봉화산 전망공원",
        "location": "전라남도 여수시 묘도동산160",
        "lat": 34.8842345628,
        "lng": 127.7032145912
    },
    {
        "title": "거문대교",
        "location": "전라남도 여수시 삼산면 동도리1594-5",
        "lat": 34.0564312951,
        "lng": 127.3018063143
    },
    {
        "title": "여자만 해넘이 전망대",
        "location": "전라남도 여수시 소라면 사곡리1191-8",
        "lat": 34.6370350651,
        "lng": 127.5759597726
    },
    {
        "title": "포천수원산정상전망대",
        "location": "경기도 포천시 군내면 직두리",
        "lat": 37.8573644858,
        "lng": 127.2650893104
    },
    {
        "title": "태화강 은하수 다리",
        "location": "울산광역시 남구 무거동",
        "lat": 35.5500133446,
        "lng": 129.2834751892
    },
    {
        "title": "가덕도외양포전망대",
        "location": "부산광역시 강서구 대항동162-1",
        "lat": 35.0017831264,
        "lng": 128.8310519246
    },
    {
        "title": "거린사슴전망대",
        "location": "제주특별자치도 서귀포시 1100로 791 (대포동)",
        "lat": 33.3062367724,
        "lng": 126.4550112359
    },
    {
        "title": "인천공항전망대",
        "location": "인천광역시 중구 공항서로 279",
        "lat": 37.4489442161,
        "lng": 126.4242665370
    },
    {
        "title": "철원 평화전망대 (한탄강 유네스코 세계지질공원)",
        "location": "강원특별자치도 철원군 동송읍 양지리457-7",
        "lat": 38.2660559792,
        "lng": 127.2827173522
    },
    {
        "title": "서남문대교",
        "location": "전라남도 신안군 비금면",
        "lat": 34.7152241018,
        "lng": 125.9374520410
    },
    {
        "title": "반포대교 달빛무지개분수",
        "location": "서울특별시 서초구 신반포로11길 40(반포동)",
        "lat": 37.5076780054,
        "lng": 126.9926825046
    },
    {
        "title": "강화도제적봉 평화전망대",
        "location": "인천광역시 강화군 양사면 전망대로 797(양사면)",
        "lat": 37.8263253898,
        "lng": 126.4329663820
    },
    {
        "title": "승리전망대",
        "location": "강원특별자치도 철원군 근동면 광삼리(근남면)",
        "lat": 38.2929459720,
        "lng": 127.5117566476
    },
    {
        "title": "화순동복남덕원비",
        "location": "전라남도 화순군 동복면 독상리",
        "lat": 35.0644961011,
        "lng": 127.1298826317
    },
    {
        "title": "화순광산이씨승지공비",
        "location": "전라남도 화순군 화순읍 앵남리",
        "lat": 35.0510716054,
        "lng": 126.9063165839
    },
    {
        "title": "현충탑(하남)",
        "location": "경기 하남시 창우동 461-9",
        "lat": 37.5301297868,
        "lng": 127.2360708323
    },
    {
        "title": "광개토태왕비ㆍ동상",
        "location": "경기도 구리시 장자대로 34",
        "lat": 37.5870296093,
        "lng": 127.1309204428
    },
    {
        "title": "새섬 새연교",
        "location": "제주특별자치도 서귀포시 남성중로 40(서홍동)",
        "lat": 33.2381875982,
        "lng": 126.5591481767
    },
    {
        "title": "춘천지구 전적비(춘천지구 전적기념관)",
        "location": "강원특별자치도 춘천시 수변공원길 45(삼천동)",
        "lat": 37.8739234528,
        "lng": 127.7049015045
    },
    {
        "title": "군산 발산리 오층석탑",
        "location": "전라북도 군산시 개정면 바르메길 43",
        "lat": 35.9587417615,
        "lng": 126.7958894224
    },
    {
        "title": "충렬탑(강원)",
        "location": "강원특별자치도 춘천시 우두동",
        "lat": 37.9162275497,
        "lng": 127.7416802323
    },
    {
        "title": "여주 현충탑",
        "location": "경기도 여주시 주내로 13(상동)",
        "lat": 37.2944701425,
        "lng": 127.6476763868
    },
    {
        "title": "송지호관망타워",
        "location": "강원특별자치도 고성군 죽왕면 동해대로 6021",
        "lat": 38.3359906599,
        "lng": 128.5173717748
    },
    {
        "title": "월영교",
        "location": "경상북도 안동시 상아동",
        "lat": 36.5768149396,
        "lng": 128.7601169125
    },
    {
        "title": "센터필드",
        "location": "서울특별시 강남구 역삼동 676 센터필드",
        "lat": 37.5026239118,
        "lng": 127.0414226547
    },
    {
        "title": "부산해양경찰서",
        "location": "부산광역시 영도구 동삼동 1149 부산해양경찰서",
        "lat": 35.0822091963,
        "lng": 129.0772061186
    }
]